FLASER 180 50.000000 50.000000 50.000000 50.000000 50.000000 50.000000 50.000000 50.000000 50.000000 50.000000 50.000000 50.000000 50.000000 50.000000 50.000000 50.000000 50.000000 50.000000 50.000000 50.000000 50.000000 50.000000 50.000000 50.000000 50.000000 50.000000 50.000000 50.000000 50.000000 50.000000 34.823716 33.894081 34.263143 34.651120 35.058908 35.487469 35.937844 36.411157 50.000000 50.000000 50.000000 50.000000 50.000000 50.000000 50.000000 50.000000 50.000000 50.000000 50.000000 50.000000 50.000000 50.000000 50.000000 50.000000 50.000000 50.000000 50.000000 50.000000 50.000000 50.000000 50.000000 50.000000 50.000000 50.000000 50.000000 50.000000 50.000000 50.000000 49.386968 48.687096 48.021367 47.387999 46.785344 46.211880 45.666200 45.147001 44.653074 44.183301 43.736640 43.312128 42.908867 42.526024 42.162824 41.818548 41.492526 41.184135 34.761751 33.583776 33.350013 33.675980 34.018963 34.379704 34.758999 35.157707 39.119122 38.961282 38.816619 38.684898 38.565907 38.459455 38.365375 38.283517 38.213753 38.155975 38.110092 38.076034 38.053747 38.043198 38.044370 38.057265 38.081902 38.118321 38.166577 38.226744 38.298917 38.383209 38.479751 38.588696 38.710217 50.000000 50.000000 50.000000 50.000000 50.000000 50.000000 50.000000 13.385092 13.079200 12.790830 12.518673 12.261556 12.060005 12.253710 12.457640 12.672441 12.898823 13.137560 13.389504 13.655588 13.936841 14.234401 14.549524 14.883603 50.000000 50.000000 50.000000 50.000000 50.000000 50.000000 50.000000 50.000000 50.000000 50.000000 50.000000 50.000000 50.000000 50.000000 50.000000 50.000000 50.000000 50.000000 50.000000 50.000000 50.000000 50.000000 50.000000 50.000000 50.000000 50.000000 50.000000 50.000000 50.000000 50.000000 50.000000 50.000000 50.000000 50.000000 50.000000 50.000000 50.000000
FLASER 180 50.000000 50.000000 50.000000 50.000000 50.000000 50.000000 50.000000 50.000000 50.000000 50.000000 50.000000 50.000000 50.000000 50.000000 50.000000 50.000000 50.000000 50.000000 50.000000 50.000000 50.000000 50.000000 50.000000 50.000000 50.000000 50.000000 50.000000 50.000000 34.966490 33.861381 33.543108 33.894081 34.263143 34.651120 35.058908 35.487469 35.937844 50.000000 50.000000 50.000000 50.000000 50.000000 50.000000 50.000000 50.000000 50.000000 50.000000 50.000000 50.000000 50.000000 50.000000 50.000000 50.000000 50.000000 50.000000 50.000000 50.000000 50.000000 50.000000 50.000000 50.000000 50.000000 50.000000 50.000000 50.000000 50.000000 50.000000 50.000000 49.386968 48.687096 48.021367 47.387999 46.785344 46.211880 45.666200 45.147001 44.653074 44.183301 43.736640 43.312128 42.908867 42.526024 42.162824 41.818548 41.492526 41.184135 34.761751 33.583776 33.350013 33.675980 34.018963 34.379704 34.758999 35.157707 39.119122 38.961282 38.816619 38.684898 38.565907 38.459455 38.365375 38.283517 38.213753 38.155975 38.110092 38.076034 38.053747 38.043198 38.044370 38.057265 38.081902 38.118321 38.166577 38.226744 38.298917 38.383209 38.479751 38.588696 12.510450 12.123049 11.762434 11.426071 11.111738 10.816287 10.946026 11.082371 11.225656 11.376246 11.534531 11.700939 11.875929 12.060005 12.253710 12.457640 12.672441 12.898823 13.137560 13.389504 50.000000 50.000000 50.000000 50.000000 50.000000 50.000000 50.000000 50.000000 50.000000 50.000000 50.000000 50.000000 50.000000 50.000000 50.000000 50.000000 50.000000 50.000000 50.000000 50.000000 50.000000 50.000000 50.000000 50.000000 50.000000 50.000000 50.000000 50.000000 50.000000 50.000000 50.000000 50.000000 50.000000 50.000000 50.000000 50.000000 50.000000 50.000000 50.000000 50.000000 50.000000 50.000000
FLASER 180 50.000000 50.000000 50.000000 50.000000 50.000000 50.000000 50.000000 50.000000 50.000000 50.000000 50.000000 50.000000 50.000000 50.000000 50.000000 50.000000 50.000000 50.000000 50.000000 50.000000 50.000000 50.000000 50.000000 50.000000 50.000000 50.000000 50.000000 33.966304 32.892402 33.209452 33.543108 33.894081 34.263143 34.651120 35.058908 35.487469 50.000000 50.000000 50.000000 50.000000 50.000000 50.000000 50.000000 50.000000 50.000000 50.000000 50.000000 50.000000 50.000000 50.000000 50.000000 50.000000 50.000000 50.000000 50.000000 50.000000 50.000000 50.000000 50.000000 50.000000 50.000000 50.000000 50.000000 50.000000 50.000000 50.000000 50.000000 50.000000 49.386968 48.687096 48.021367 47.387999 46.785344 46.211880 45.666200 45.147001 44.653074 44.183301 43.736640 43.312128 42.908867 42.526024 42.162824 41.818548 41.492526 41.184135 34.761751 33.583776 33.350013 33.675980 34.018963 34.379704 34.758999 35.157707 39.119122 38.961282 38.816619 38.684898 38.565907 38.459455 38.365375 38.283517 38.213753 38.155975 38.110092 38.076034 38.053747 38.043198 38.044370 38.057265 11.361089 10.856263 10.397459 9.978812 9.901338 9.983227 10.069609 10.160657 10.256553 10.357498 10.463705 10.575404 10.692842 10.816287 10.946026 11.082371 11.225656 11.376246 11.534531 11.700939 11.875929 50.000000 50.000000 50.000000 50.000000 50.000000 50.000000 50.000000 50.000000 50.000000 50.000000 50.000000 50.000000 50.000000 50.000000 50.000000 50.000000 50.000000 50.000000 50.000000 50.000000 50.000000 50.000000 50.000000 50.000000 50.000000 50.000000 50.000000 50.000000 50.000000 50.000000 50.000000 50.000000 50.000000 50.000000 50.000000 50.000000 50.000000 50.000000 50.000000 50.000000 50.000000 50.000000 50.000000 50.000000 50.000000 50.000000 50.000000 50.000000 50.000000
FLASER 180 50.000000 50.000000 50.000000 50.000000 50.000000 50.000000 50.000000 50.000000 50.000000 50.000000 50.000000 50.000000 50.000000 50.000000 50.000000 50.000000 50.000000 50.000000 50.000000 50.000000 50.000000 50.000000 50.000000 50.000000 50.000000 34.131603 32.906063 32.591291 32.892402 33.209452 33.543108 33.894081 34.263143 34.651120 50.000000 50.000000 50.000000 50.000000 50.000000 50.000000 50.000000 50.000000 50.000000 50.000000 50.000000 50.000000 50.000000 50.000000 50.000000 50.000000 50.000000 50.000000 50.000000 50.000000 50.000000 50.000000 50.000000 50.000000 50.000000 50.000000 50.000000 50.000000 50.000000 50.000000 50.000000 50.000000 50.000000 50.000000 49.386968 48.687096 48.021367 47.387999 46.785344 46.211880 45.666200 45.147001 44.653074 44.183301 43.736640 43.312128 42.908867 42.526024 42.162824 41.818548 41.492526 41.184135 34.761751 33.583776 33.350013 33.675980 34.018963 34.379704 34.758999 35.157707 39.119122 38.961282 38.816619 38.684898 38.565907 38.459455 10.914523 9.976724 9.221014 9.258671 9.299512 9.343607 9.391028 9.441856 9.496178 9.554088 9.615690 9.681092 9.750414 9.823783 9.901338 9.983227 10.069609 10.160657 10.256553 10.357498 10.463705 10.575404 10.692842 10.816287 50.000000 50.000000 50.000000 50.000000 50.000000 50.000000 50.000000 50.000000 50.000000 50.000000 50.000000 50.000000 50.000000 50.000000 50.000000 50.000000 50.000000 50.000000 50.000000 50.000000 50.000000 50.000000 50.000000 50.000000 50.000000 50.000000 50.000000 50.000000 50.000000 50.000000 50.000000 50.000000 50.000000 50.000000 50.000000 50.000000 50.000000 50.000000 50.000000 50.000000 50.000000 50.000000 50.000000 50.000000 50.000000 50.000000 50.000000 50.000000 50.000000 50.000000 50.000000 50.000000 50.000000 50.000000 50.000000 50.000000
FLASER 180 50.000000 50.000000 50.000000 50.000000 50.000000 50.000000 50.000000 50.000000 50.000000 50.000000 50.000000 50.000000 50.000000 50.000000 50.000000 50.000000 50.000000 50.000000 50.000000 50.000000 50.000000 50.000000 50.000000 50.000000 33.017561 32.034468 32.305504 32.591291 32.892402 33.209452 33.543108 33.894081 34.263143 50.000000 50.000000 50.000000 50.000000 50.000000 50.000000 50.000000 50.000000 50.000000 50.000000 50.000000 50.000000 50.000000 50.000000 50.000000 50.000000 50.000000 50.000000 50.000000 50.000000 50.000000 50.000000 50.000000 50.000000 50.000000 50.000000 50.000000 50.000000 50.000000 50.000000 50.000000 50.000000 50.000000 50.000000 50.000000 49.386968 48.687096 48.021367 47.387999 46.785344 46.211880 45.666200 45.147001 44.653074 44.183301 43.736640 43.312128 42.908867 42.526024 42.162824 41.818548 41.492526 41.184135 34.761751 33.583776 33.350013 33.675980 9.000347 9.003120 9.008670 9.017007 9.028142 9.042094 9.058884 9.078537 9.101086 9.126564 9.155014 9.186481 9.221014 9.258671 9.299512 9.343607 9.391028 9.441856 9.496178 9.554088 9.615690 9.681092 9.750414 9.823783 38.298917 38.383209 38.479751 38.588696 38.710217 50.000000 50.000000 50.000000 50.000000 50.000000 50.000000 50.000000 50.000000 50.000000 50.000000 50.000000 50.000000 50.000000 50.000000 50.000000 50.000000 50.000000 50.000000 50.000000 50.000000 50.000000 50.000000 50.000000 50.000000 50.000000 50.000000 50.000000 50.000000 50.000000 50.000000 50.000000 50.000000 50.000000 50.000000 50.000000 50.000000 50.000000 50.000000 50.000000 50.000000 50.000000 50.000000 50.000000 50.000000 50.000000 50.000000 50.000000 50.000000 50.000000 50.000000 50.000000 50.000000 50.000000 50.000000 50.000000 50.000000 50.000000 50.000000 50.000000 50.000000 50.000000
FLASER 180 50.000000 50.000000 50.000000 50.000000 50.000000 50.000000 50.000000 50.000000 50.000000 50.000000 50.000000 50.000000 50.000000 50.000000 50.000000 50.000000 50.000000 50.000000 50.000000 50.000000 50.000000 50.000000 33.192189 31.823259 31.777648 32.034468 32.305504 32.591291 32.892402 33.209452 33.543108 50.000000 50.000000 50.000000 50.000000 50.000000 50.000000 50.000000 50.000000 50.000000 50.000000 50.000000 50.000000 50.000000 50.000000 50.000000 50.000000 50.000000 50.000000 50.000000 50.000000 50.000000 50.000000 50.000000 50.000000 50.000000 50.000000 50.000000 50.000000 50.000000 50.000000 50.000000 50.000000 50.000000 50.000000 50.000000 50.000000 50.000000 49.386968 48.687096 48.021367 47.387999 46.785344 46.211880 45.666200 45.147001 44.653074 44.183301 9.186481 9.155014 9.126564 9.101086 9.078537 9.058884 9.042094 9.028142 9.017007 9.008670 9.003120 9.000347 9.000347 9.003120 9.008670 9.017007 9.028142 9.042094 9.058884 9.078537 9.101086 9.126564 9.155014 9.186481 38.213753 38.155975 38.110092 38.076034 38.053747 38.043198 38.044370 38.057265 38.081902 38.118321 38.166577 38.226744 38.298917 38.383209 38.479751 38.588696 38.710217 50.000000 50.000000 50.000000 50.000000 50.000000 50.000000 50.000000 50.000000 50.000000 50.000000 50.000000 50.000000 50.000000 50.000000 50.000000 50.000000 50.000000 50.000000 50.000000 50.000000 50.000000 50.000000 50.000000 50.000000 50.000000 50.000000 50.000000 50.000000 50.000000 50.000000 50.000000 50.000000 50.000000 50.000000 50.000000 50.000000 50.000000 50.000000 50.000000 50.000000 50.000000 50.000000 50.000000 50.000000 50.000000 50.000000 50.000000 50.000000 50.000000 50.000000 50.000000 50.000000 50.000000 50.000000 50.000000 50.000000 50.000000 50.000000 50.000000 50.000000 50.000000
FLASER 180 50.000000 50.000000 50.000000 50.000000 50.000000 50.000000 50.000000 50.000000 50.000000 50.000000 50.000000 50.000000 50.000000 50.000000 50.000000 50.000000 50.000000 50.000000 50.000000 50.000000 50.000000 31.919725 31.304711 31.534549 31.777648 32.034468 32.305504 32.591291 32.892402 33.209452 50.000000 50.000000 50.000000 50.000000 50.000000 50.000000 50.000000 50.000000 50.000000 50.000000 50.000000 50.000000 50.000000 50.000000 50.000000 50.000000 50.000000 50.000000 50.000000 50.000000 50.000000 50.000000 50.000000 50.000000 50.000000 50.000000 50.000000 50.000000 50.000000 50.000000 50.000000 50.000000 50.000000 50.000000 50.000000 50.000000 9.823783 9.750414 9.681092 9.615690 9.554088 9.496178 9.441856 9.391028 9.343607 9.299512 9.258671 9.221014 9.186481 9.155014 9.126564 9.101086 9.078537 9.058884 9.042094 9.028142 9.017007 9.008670 9.003120 9.000347 34.018963 34.379704 34.758999 35.157707 39.119122 38.961282 38.816619 38.684898 38.565907 38.459455 38.365375 38.283517 38.213753 38.155975 38.110092 38.076034 38.053747 38.043198 38.044370 38.057265 38.081902 38.118321 38.166577 38.226744 38.298917 38.383209 38.479751 38.588696 38.710217 50.000000 50.000000 50.000000 50.000000 50.000000 50.000000 50.000000 50.000000 50.000000 50.000000 50.000000 50.000000 50.000000 50.000000 50.000000 50.000000 50.000000 50.000000 50.000000 50.000000 50.000000 50.000000 50.000000 50.000000 50.000000 50.000000 50.000000 50.000000 50.000000 50.000000 50.000000 50.000000 50.000000 50.000000 50.000000 50.000000 50.000000 50.000000 50.000000 50.000000 50.000000 50.000000 50.000000 50.000000 50.000000 50.000000 50.000000 50.000000 50.000000 50.000000 50.000000 50.000000 50.000000 50.000000 50.000000 50.000000 50.000000 50.000000 50.000000 50.000000 50.000000
FLASER 180 50.000000 50.000000 50.000000 50.000000 50.000000 50.000000 50.000000 50.000000 50.000000 50.000000 50.000000 50.000000 50.000000 50.000000 50.000000 50.000000 50.000000 50.000000 50.000000 32.078773 30.883134 31.087705 31.304711 31.534549 31.777648 32.034468 32.305504 32.591291 50.000000 50.000000 50.000000 50.000000 50.000000 50.000000 50.000000 50.000000 50.000000 50.000000 50.000000 50.000000 50.000000 50.000000 50.000000 50.000000 50.000000 50.000000 50.000000 50.000000 50.000000 50.000000 50.000000 50.000000 50.000000 50.000000 50.000000 50.000000 10.816287 10.692842 10.575404 10.463705 10.357498 10.256553 10.160657 10.069609 9.983227 9.901338 9.823783 9.750414 9.681092 9.615690 9.554088 9.496178 9.441856 9.391028 9.343607 9.299512 9.258671 9.221014 9.976724 10.914523 42.908867 42.526024 42.162824 41.818548 41.492526 41.184135 34.761751 33.583776 33.350013 33.675980 34.018963 34.379704 34.758999 35.157707 39.119122 38.961282 38.816619 38.684898 38.565907 38.459455 38.365375 38.283517 38.213753 38.155975 38.110092 38.076034 38.053747 38.043198 38.044370 38.057265 38.081902 38.118321 38.166577 38.226744 38.298917 38.383209 38.479751 38.588696 38.710217 50.000000 50.000000 50.000000 50.000000 50.000000 50.000000 50.000000 50.000000 50.000000 50.000000 50.000000 50.000000 50.000000 50.000000 50.000000 50.000000 50.000000 50.000000 50.000000 50.000000 50.000000 50.000000 50.000000 50.000000 50.000000 50.000000 50.000000 50.000000 50.000000 50.000000 50.000000 50.000000 50.000000 50.000000 50.000000 50.000000 50.000000 50.000000 50.000000 50.000000 50.000000 50.000000 50.000000 50.000000 50.000000 50.000000 50.000000 50.000000 50.000000 50.000000 50.000000 50.000000 50.000000 50.000000 50.000000 50.000000 50.000000 50.000000 50.000000 50.000000 50.000000
FLASER 180 50.000000 50.000000 50.000000 50.000000 50.000000 50.000000 50.000000 50.000000 50.000000 50.000000 50.000000 50.000000 50.000000 50.000000 50.000000 50.000000 50.000000 32.317712 30.577526 30.690630 30.883134 31.087705 31.304711 31.534549 31.777648 32.034468 32.305504 50.000000 50.000000 50.000000 50.000000 50.000000 50.000000 50.000000 50.000000 50.000000 50.000000 50.000000 50.000000 50.000000 50.000000 50.000000 50.000000 50.000000 50.000000 50.000000 50.000000 50.000000 50.000000 11.875929 11.700939 11.534531 11.376246 11.225656 11.082371 10.946026 10.816287 10.692842 10.575404 10.463705 10.357498 10.256553 10.160657 10.069609 9.983227 9.901338 9.978812 10.397459 10.856263 11.361089 48.021367 47.387999 46.785344 46.211880 45.666200 45.147001 44.653074 44.183301 43.736640 43.312128 42.908867 42.526024 42.162824 41.818548 41.492526 41.184135 34.761751 33.583776 33.350013 33.675980 34.018963 34.379704 34.758999 35.157707 39.119122 38.961282 38.816619 38.684898 38.565907 38.459455 38.365375 38.283517 38.213753 38.155975 38.110092 38.076034 38.053747 38.043198 38.044370 38.057265 38.081902 38.118321 38.166577 38.226744 38.298917 38.383209 38.479751 38.588696 38.710217 50.000000 50.000000 50.000000 50.000000 50.000000 50.000000 50.000000 50.000000 50.000000 50.000000 50.000000 50.000000 50.000000 50.000000 50.000000 50.000000 50.000000 50.000000 50.000000 50.000000 50.000000 50.000000 50.000000 50.000000 50.000000 50.000000 50.000000 50.000000 50.000000 50.000000 50.000000 50.000000 50.000000 50.000000 50.000000 50.000000 50.000000 50.000000 50.000000 50.000000 50.000000 50.000000 50.000000 50.000000 50.000000 50.000000 50.000000 50.000000 50.000000 50.000000 50.000000 50.000000 50.000000 50.000000 50.000000 50.000000 50.000000 50.000000 50.000000 50.000000 50.000000
FLASER 180 50.000000 50.000000 50.000000 50.000000 50.000000 50.000000 50.000000 50.000000 50.000000 50.000000 50.000000 50.000000 50.000000 50.000000 50.000000 50.000000 30.670789 30.340478 30.509850 30.690630 30.883134 31.087705 31.304711 31.534549 31.777648 50.000000 50.000000 50.000000 50.000000 50.000000 50.000000 50.000000 50.000000 50.000000 50.000000 50.000000 50.000000 50.000000 50.000000 50.000000 50.000000 50.000000 13.389504 13.137560 12.898823 12.672441 12.457640 12.253710 12.060005 11.875929 11.700939 11.534531 11.376246 11.225656 11.082371 10.946026 10.816287 11.111738 11.426071 11.762434 12.123049 12.510450 50.000000 50.000000 50.000000 50.000000 50.000000 50.000000 49.386968 48.687096 48.021367 47.387999 46.785344 46.211880 45.666200 45.147001 44.653074 44.183301 43.736640 43.312128 42.908867 42.526024 42.162824 41.818548 41.492526 41.184135 34.761751 33.583776 33.350013 33.675980 34.018963 34.379704 34.758999 35.157707 39.119122 38.961282 38.816619 38.684898 38.565907 38.459455 38.365375 38.283517 38.213753 38.155975 38.110092 38.076034 38.053747 38.043198 38.044370 38.057265 38.081902 38.118321 38.166577 38.226744 38.298917 38.383209 38.479751 38.588696 38.710217 50.000000 50.000000 50.000000 50.000000 50.000000 50.000000 50.000000 50.000000 50.000000 50.000000 50.000000 50.000000 50.000000 50.000000 50.000000 50.000000 50.000000 50.000000 50.000000 50.000000 50.000000 50.000000 50.000000 50.000000 50.000000 50.000000 50.000000 50.000000 50.000000 50.000000 50.000000 50.000000 50.000000 50.000000 50.000000 50.000000 50.000000 50.000000 50.000000 50.000000 50.000000 50.000000 50.000000 50.000000 50.000000 50.000000 50.000000 50.000000 50.000000 50.000000 50.000000 50.000000 50.000000 50.000000 50.000000 50.000000 50.000000 50.000000 50.000000 50.000000 50.000000
FLASER 180 50.000000 50.000000 50.000000 50.000000 50.000000 50.000000 50.000000 50.000000 50.000000 50.000000 50.000000 50.000000 50.000000 50.000000 30.832961 30.034812 30.182222 30.340478 30.509850 30.690630 30.883134 31.087705 31.304711 31.534549 50.000000 50.000000 50.000000 50.000000 50.000000 50.000000 50.000000 50.000000 50.000000 50.000000 50.000000 50.000000 50.000000 14.883603 14.549524 14.234401 13.936841 13.655588 13.389504 13.137560 12.898823 12.672441 12.457640 12.253710 12.060005 12.261556 12.518673 12.790830 13.079200 13.385092 50.000000 50.000000 50.000000 50.000000 50.000000 50.000000 50.000000 50.000000 50.000000 50.000000 50.000000 50.000000 50.000000 50.000000 49.386968 48.687096 48.021367 47.387999 46.785344 46.211880 45.666200 45.147001 44.653074 44.183301 43.736640 43.312128 42.908867 42.526024 42.162824 41.818548 41.492526 41.184135 34.761751 33.583776 33.350013 33.675980 34.018963 34.379704 34.758999 35.157707 39.119122 38.961282 38.816619 38.684898 38.565907 38.459455 38.365375 38.283517 38.213753 38.155975 38.110092 38.076034 38.053747 38.043198 38.044370 38.057265 38.081902 38.118321 38.166577 38.226744 38.298917 38.383209 38.479751 38.588696 38.710217 50.000000 50.000000 50.000000 50.000000 50.000000 50.000000 50.000000 50.000000 50.000000 50.000000 50.000000 50.000000 50.000000 50.000000 50.000000 50.000000 50.000000 50.000000 50.000000 50.000000 50.000000 50.000000 50.000000 50.000000 50.000000 50.000000 50.000000 50.000000 50.000000 50.000000 50.000000 50.000000 50.000000 50.000000 50.000000 50.000000 50.000000 50.000000 50.000000 50.000000 50.000000 50.000000 50.000000 50.000000 50.000000 50.000000 50.000000 50.000000 50.000000 50.000000 50.000000 50.000000 50.000000 50.000000 50.000000 50.000000 50.000000 50.000000 50.000000 50.000000 50.000000
FLASER 180 50.000000 50.000000 50.000000 50.000000 50.000000 50.000000 50.000000 50.000000 50.000000 50.000000 50.000000 50.000000 31.092143 29.771555 29.897999 30.034812 30.182222 30.340478 30.509850 30.690630 30.883134 31.087705 50.000000 50.000000 50.000000 50.000000 50.000000 50.000000 50.000000 50.000000 50.000000 50.000000 50.000000 16.443319 16.015996 15.615008 15.238188 14.883603 14.549524 14.234401 13.936841 13.655588 13.506242 13.727064 13.959599 14.204598 14.462884 14.735361 50.000000 50.000000 50.000000 50.000000 50.000000 50.000000 50.000000 50.000000 50.000000 50.000000 50.000000 50.000000 50.000000 50.000000 50.000000 50.000000 50.000000 50.000000 50.000000 50.000000 49.386968 48.687096 48.021367 47.387999 46.785344 46.211880 45.666200 45.147001 44.653074 44.183301 43.736640 43.312128 42.908867 42.526024 42.162824 41.818548 41.492526 41.184135 34.761751 33.583776 33.350013 33.675980 34.018963 34.379704 34.758999 35.157707 39.119122 38.961282 38.816619 38.684898 38.565907 38.459455 38.365375 38.283517 38.213753 38.155975 38.110092 38.076034 38.053747 38.043198 38.044370 38.057265 38.081902 38.118321 38.166577 38.226744 38.298917 38.383209 38.479751 38.588696 38.710217 50.000000 50.000000 50.000000 50.000000 50.000000 50.000000 50.000000 50.000000 50.000000 50.000000 50.000000 50.000000 50.000000 50.000000 50.000000 50.000000 50.000000 50.000000 50.000000 50.000000 50.000000 50.000000 50.000000 50.000000 50.000000 50.000000 50.000000 50.000000 50.000000 50.000000 50.000000 50.000000 50.000000 50.000000 50.000000 50.000000 50.000000 50.000000 50.000000 50.000000 50.000000 50.000000 50.000000 50.000000 50.000000 50.000000 50.000000 50.000000 50.000000 50.000000 50.000000 50.000000 50.000000 50.000000 50.000000 50.000000 50.000000 50.000000 50.000000 50.000000 50.000000
FLASER 180 50.000000 50.000000 50.000000 50.000000 50.000000 50.000000 50.000000 50.000000 50.000000 50.000000 50.000000 29.548962 29.655273 29.771555 29.897999 30.034812 30.182222 30.340478 30.509850 30.690630 50.000000 50.000000 50.000000 50.000000 50.000000 50.000000 50.000000 50.000000 50.000000 50.000000 17.909339 17.387050 16.899418 16.443319 16.015996 15.615008 15.238188 15.066686 15.272534 15.488922 15.716441 15.955732 16.207491 50.000000 50.000000 50.000000 50.000000 50.000000 50.000000 50.000000 50.000000 50.000000 50.000000 50.000000 50.000000 50.000000 50.000000 50.000000 50.000000 50.000000 50.000000 50.000000 50.000000 50.000000 50.000000 50.000000 50.000000 50.000000 49.386968 48.687096 48.021367 47.387999 46.785344 46.211880 45.666200 45.147001 44.653074 44.183301 43.736640 43.312128 42.908867 42.526024 42.162824 41.818548 41.492526 41.184135 34.761751 33.583776 33.350013 33.675980 34.018963 34.379704 34.758999 35.157707 39.119122 38.961282 38.816619 38.684898 38.565907 38.459455 38.365375 38.283517 38.213753 38.155975 38.110092 38.076034 38.053747 38.043198 38.044370 38.057265 38.081902 38.118321 38.166577 38.226744 38.298917 38.383209 38.479751 38.588696 38.710217 50.000000 50.000000 50.000000 50.000000 50.000000 50.000000 50.000000 50.000000 50.000000 50.000000 50.000000 50.000000 50.000000 50.000000 50.000000 50.000000 50.000000 50.000000 50.000000 50.000000 50.000000 50.000000 50.000000 50.000000 50.000000 50.000000 50.000000 50.000000 50.000000 50.000000 50.000000 50.000000 50.000000 50.000000 50.000000 50.000000 50.000000 50.000000 50.000000 50.000000 50.000000 50.000000 50.000000 50.000000 50.000000 50.000000 50.000000 50.000000 50.000000 50.000000 50.000000 50.000000 50.000000 50.000000 50.000000 50.000000 50.000000 50.000000 50.000000 50.000000 50.000000
FLASER 180 50.000000 50.000000 50.000000 50.000000 50.000000 50.000000 50.000000 50.000000 50.000000 29.365581 29.452449 29.548962 29.655273 29.771555 29.897999 30.034812 30.182222 30.340478 30.509850 50.000000 50.000000 50.000000 50.000000 50.000000 50.000000 50.000000 50.000000 19.722370 19.072631 18.469844 17.909339 17.387050 16.899418 16.728127 16.924990 17.131882 17.349304 17.577800 50.000000 50.000000 50.000000 50.000000 50.000000 50.000000 50.000000 50.000000 50.000000 50.000000 50.000000 50.000000 50.000000 50.000000 50.000000 50.000000 50.000000 50.000000 50.000000 50.000000 50.000000 50.000000 50.000000 50.000000 50.000000 50.000000 50.000000 50.000000 50.000000 50.000000 49.386968 48.687096 48.021367 47.387999 46.785344 46.211880 45.666200 45.147001 44.653074 44.183301 43.736640 43.312128 42.908867 42.526024 42.162824 41.818548 41.492526 41.184135 34.761751 33.583776 33.350013 33.675980 34.018963 34.379704 34.758999 35.157707 39.119122 38.961282 38.816619 38.684898 38.565907 38.459455 38.365375 38.283517 38.213753 38.155975 38.110092 38.076034 38.053747 38.043198 38.044370 38.057265 38.081902 38.118321 38.166577 38.226744 38.298917 38.383209 38.479751 38.588696 38.710217 50.000000 50.000000 50.000000 50.000000 50.000000 50.000000 50.000000 50.000000 50.000000 50.000000 50.000000 50.000000 50.000000 50.000000 50.000000 50.000000 50.000000 50.000000 50.000000 50.000000 50.000000 50.000000 50.000000 50.000000 50.000000 50.000000 50.000000 50.000000 50.000000 50.000000 50.000000 50.000000 50.000000 50.000000 50.000000 50.000000 50.000000 50.000000 50.000000 50.000000 50.000000 50.000000 50.000000 50.000000 50.000000 50.000000 50.000000 50.000000 50.000000 50.000000 50.000000 50.000000 50.000000 50.000000 50.000000 50.000000 50.000000 50.000000 50.000000 50.000000 50.000000
FLASER 180 50.000000 50.000000 50.000000 50.000000 50.000000 50.000000 50.000000 29.220241 29.288219 29.365581 29.452449 29.548962 29.655273 29.771555 29.897999 30.034812 30.182222 50.000000 50.000000 50.000000 50.000000 50.000000 50.000000 50.000000 50.000000 21.185133 20.424453 19.722370 19.072631 18.469844 18.506542 18.700183 18.903803 19.117860 19.342846 50.000000 50.000000 50.000000 50.000000 50.000000 50.000000 50.000000 50.000000 50.000000 50.000000 50.000000 50.000000 50.000000 50.000000 50.000000 50.000000 50.000000 50.000000 50.000000 50.000000 50.000000 50.000000 50.000000 50.000000 50.000000 50.000000 50.000000 50.000000 50.000000 50.000000 50.000000 50.000000 50.000000 49.386968 48.687096 48.021367 47.387999 46.785344 46.211880 45.666200 45.147001 44.653074 44.183301 43.736640 43.312128 42.908867 42.526024 42.162824 41.818548 41.492526 41.184135 34.761751 33.583776 33.350013 33.675980 34.018963 34.379704 34.758999 35.157707 39.119122 38.961282 38.816619 38.684898 38.565907 38.459455 38.365375 38.283517 38.213753 38.155975 38.110092 38.076034 38.053747 38.043198 38.044370 38.057265 38.081902 38.118321 38.166577 38.226744 38.298917 38.383209 38.479751 38.588696 38.710217 50.000000 50.000000 50.000000 50.000000 50.000000 50.000000 50.000000 50.000000 50.000000 50.000000 50.000000 50.000000 50.000000 50.000000 50.000000 50.000000 50.000000 50.000000 50.000000 50.000000 50.000000 50.000000 50.000000 50.000000 50.000000 50.000000 50.000000 50.000000 50.000000 50.000000 50.000000 50.000000 50.000000 50.000000 50.000000 50.000000 50.000000 50.000000 50.000000 50.000000 50.000000 50.000000 50.000000 50.000000 50.000000 50.000000 50.000000 50.000000 50.000000 50.000000 50.000000 50.000000 50.000000 50.000000 50.000000 50.000000 50.000000 50.000000 50.000000 50.000000 50.000000
FLASER 180 50.000000 50.000000 50.000000 50.000000 50.000000 29.112020 29.161538 29.220241 29.288219 29.365581 29.452449 29.548962 29.655273 29.771555 29.897999 50.000000 50.000000 50.000000 50.000000 50.000000 50.000000 50.000000 50.000000 22.912746 22.011708 21.185133 20.424453 20.229077 20.415973 20.612764 20.819860 21.037706 50.000000 50.000000 50.000000 50.000000 50.000000 50.000000 50.000000 50.000000 50.000000 50.000000 50.000000 50.000000 50.000000 50.000000 50.000000 50.000000 50.000000 50.000000 50.000000 50.000000 50.000000 50.000000 50.000000 50.000000 50.000000 50.000000 50.000000 50.000000 50.000000 50.000000 50.000000 50.000000 50.000000 50.000000 50.000000 50.000000 49.386968 48.687096 48.021367 47.387999 46.785344 46.211880 45.666200 45.147001 44.653074 44.183301 43.736640 43.312128 42.908867 42.526024 42.162824 41.818548 41.492526 41.184135 34.761751 33.583776 33.350013 33.675980 34.018963 34.379704 34.758999 35.157707 39.119122 38.961282 38.816619 38.684898 38.565907 38.459455 38.365375 38.283517 38.213753 38.155975 38.110092 38.076034 38.053747 38.043198 38.044370 38.057265 38.081902 38.118321 38.166577 38.226744 38.298917 38.383209 38.479751 38.588696 38.710217 50.000000 50.000000 50.000000 50.000000 50.000000 50.000000 50.000000 50.000000 50.000000 50.000000 50.000000 50.000000 50.000000 50.000000 50.000000 50.000000 50.000000 50.000000 50.000000 50.000000 50.000000 50.000000 50.000000 50.000000 50.000000 50.000000 50.000000 50.000000 50.000000 50.000000 50.000000 50.000000 50.000000 50.000000 50.000000 50.000000 50.000000 50.000000 50.000000 50.000000 50.000000 50.000000 50.000000 50.000000 50.000000 50.000000 50.000000 50.000000 50.000000 50.000000 50.000000 50.000000 50.000000 50.000000 50.000000 50.000000 50.000000 50.000000 50.000000 50.000000 50.000000
FLASER 180 50.000000 50.000000 50.000000 29.040244 29.071610 29.112020 29.161538 29.220241 29.288219 29.365581 29.452449 29.548962 29.655273 50.000000 50.000000 50.000000 50.000000 50.000000 50.000000 50.000000 50.000000 24.980655 23.898376 22.912746 22.011708 22.092736 22.279658 22.476753 22.684415 50.000000 50.000000 50.000000 50.000000 50.000000 50.000000 50.000000 50.000000 50.000000 50.000000 50.000000 50.000000 50.000000 50.000000 50.000000 50.000000 50.000000 50.000000 50.000000 50.000000 50.000000 50.000000 50.000000 50.000000 50.000000 50.000000 50.000000 50.000000 50.000000 50.000000 50.000000 50.000000 50.000000 50.000000 50.000000 50.000000 50.000000 50.000000 50.000000 49.386968 48.687096 48.021367 47.387999 46.785344 46.211880 45.666200 45.147001 44.653074 44.183301 43.736640 43.312128 42.908867 42.526024 42.162824 41.818548 41.492526 41.184135 34.761751 33.583776 33.350013 33.675980 34.018963 34.379704 34.758999 35.157707 39.119122 38.961282 38.816619 38.684898 38.565907 38.459455 38.365375 38.283517 38.213753 38.155975 38.110092 38.076034 38.053747 38.043198 38.044370 38.057265 38.081902 38.118321 38.166577 38.226744 38.298917 38.383209 38.479751 38.588696 38.710217 50.000000 50.000000 50.000000 50.000000 50.000000 50.000000 50.000000 50.000000 50.000000 50.000000 50.000000 50.000000 50.000000 50.000000 50.000000 50.000000 50.000000 50.000000 50.000000 50.000000 50.000000 50.000000 50.000000 50.000000 50.000000 50.000000 50.000000 50.000000 50.000000 50.000000 50.000000 50.000000 50.000000 50.000000 50.000000 50.000000 50.000000 50.000000 50.000000 50.000000 50.000000 50.000000 50.000000 50.000000 50.000000 50.000000 50.000000 50.000000 50.000000 50.000000 50.000000 50.000000 50.000000 50.000000 50.000000 50.000000 50.000000 50.000000 50.000000 50.000000 50.000000
FLASER 180 50.000000 29.004467 29.017875 29.040244 29.071610 29.112020 29.161538 29.220241 29.288219 29.365581 29.452449 50.000000 50.000000 50.000000 50.000000 50.000000 50.000000 50.000000 50.000000 27.496092 26.174053 24.980655 23.898376 23.922761 24.107181 24.302010 24.507624 50.000000 50.000000 50.000000 50.000000 50.000000 50.000000 50.000000 50.000000 50.000000 50.000000 50.000000 50.000000 50.000000 50.000000 50.000000 50.000000 50.000000 50.000000 50.000000 50.000000 50.000000 50.000000 50.000000 50.000000 50.000000 50.000000 50.000000 50.000000 50.000000 50.000000 50.000000 50.000000 50.000000 50.000000 50.000000 50.000000 50.000000 50.000000 50.000000 50.000000 50.000000 49.386968 48.687096 48.021367 47.387999 46.785344 46.211880 45.666200 45.147001 44.653074 44.183301 43.736640 43.312128 42.908867 42.526024 42.162824 41.818548 41.492526 41.184135 34.761751 33.583776 33.350013 33.675980 34.018963 34.379704 34.758999 35.157707 39.119122 38.961282 38.816619 38.684898 38.565907 38.459455 38.365375 38.283517 38.213753 38.155975 38.110092 38.076034 38.053747 38.043198 38.044370 38.057265 38.081902 38.118321 38.166577 38.226744 38.298917 38.383209 38.479751 38.588696 38.710217 50.000000 50.000000 50.000000 50.000000 50.000000 50.000000 50.000000 50.000000 50.000000 50.000000 50.000000 50.000000 50.000000 50.000000 50.000000 50.000000 50.000000 50.000000 50.000000 50.000000 50.000000 50.000000 50.000000 50.000000 50.000000 50.000000 50.000000 50.000000 50.000000 50.000000 50.000000 50.000000 50.000000 50.000000 50.000000 50.000000 50.000000 50.000000 50.000000 50.000000 50.000000 50.000000 50.000000 50.000000 50.000000 50.000000 50.000000 50.000000 50.000000 50.000000 50.000000 50.000000 50.000000 50.000000 50.000000 50.000000 50.000000 50.000000 50.000000 50.000000 50.000000
FLASER 180 29.000000 29.004467 29.017875 29.040244 29.071610 29.112020 29.161538 29.220241 29.288219 50.000000 50.000000 50.000000 50.000000 50.000000 50.000000 50.000000 50.000000 50.000000 28.968183 27.496092 26.174053 25.727756 25.907347 26.097558 26.298743 50.000000 50.000000 50.000000 50.000000 50.000000 50.000000 50.000000 50.000000 50.000000 50.000000 50.000000 50.000000 50.000000 50.000000 50.000000 50.000000 50.000000 50.000000 50.000000 50.000000 50.000000 50.000000 50.000000 50.000000 50.000000 50.000000 50.000000 50.000000 50.000000 50.000000 50.000000 50.000000 50.000000 50.000000 50.000000 50.000000 50.000000 50.000000 50.000000 50.000000 50.000000 50.000000 50.000000 49.386968 48.687096 48.021367 47.387999 46.785344 46.211880 45.666200 45.147001 44.653074 44.183301 43.736640 43.312128 42.908867 42.526024 42.162824 41.818548 41.492526 41.184135 34.761751 33.583776 33.350013 33.675980 34.018963 34.379704 34.758999 35.157707 39.119122 38.961282 38.816619 38.684898 38.565907 38.459455 38.365375 38.283517 38.213753 38.155975 38.110092 38.076034 38.053747 38.043198 38.044370 38.057265 38.081902 38.118321 38.166577 38.226744 38.298917 38.383209 38.479751 38.588696 38.710217 50.000000 50.000000 50.000000 50.000000 50.000000 50.000000 50.000000 50.000000 50.000000 50.000000 50.000000 50.000000 50.000000 50.000000 50.000000 50.000000 50.000000 50.000000 50.000000 50.000000 50.000000 50.000000 50.000000 50.000000 50.000000 50.000000 50.000000 50.000000 50.000000 50.000000 50.000000 50.000000 50.000000 50.000000 50.000000 50.000000 50.000000 50.000000 50.000000 50.000000 50.000000 50.000000 50.000000 50.000000 50.000000 50.000000 50.000000 50.000000 50.000000 50.000000 50.000000 50.000000 50.000000 50.000000 50.000000 50.000000 50.000000 50.000000 50.000000 50.000000 50.000000
FLASER 180 29.000000 29.004467 29.017875 29.040244 29.071610 29.112020 29.161538 50.000000 50.000000 50.000000 50.000000 50.000000 50.000000 50.000000 50.000000 50.000000 50.000000 30.616780 28.968183 27.515737 27.688327 27.871735 28.066292 50.000000 50.000000 50.000000 50.000000 50.000000 50.000000 50.000000 50.000000 50.000000 50.000000 50.000000 50.000000 50.000000 50.000000 50.000000 50.000000 50.000000 50.000000 50.000000 50.000000 50.000000 50.000000 50.000000 50.000000 50.000000 50.000000 50.000000 50.000000 50.000000 50.000000 50.000000 50.000000 50.000000 50.000000 50.000000 50.000000 50.000000 50.000000 50.000000 50.000000 50.000000 50.000000 50.000000 50.000000 50.000000 49.386968 48.687096 48.021367 47.387999 46.785344 46.211880 45.666200 45.147001 44.653074 44.183301 43.736640 43.312128 42.908867 42.526024 42.162824 41.818548 41.492526 41.184135 34.761751 33.583776 33.350013 33.675980 34.018963 34.379704 34.758999 35.157707 39.119122 38.961282 38.816619 38.684898 38.565907 38.459455 38.365375 38.283517 38.213753 38.155975 38.110092 38.076034 38.053747 38.043198 38.044370 38.057265 38.081902 38.118321 38.166577 38.226744 38.298917 38.383209 38.479751 38.588696 38.710217 50.000000 50.000000 50.000000 50.000000 50.000000 50.000000 50.000000 50.000000 50.000000 50.000000 50.000000 50.000000 50.000000 50.000000 50.000000 50.000000 50.000000 50.000000 50.000000 50.000000 50.000000 50.000000 50.000000 50.000000 50.000000 50.000000 50.000000 50.000000 50.000000 50.000000 50.000000 50.000000 50.000000 50.000000 50.000000 50.000000 50.000000 50.000000 50.000000 50.000000 50.000000 50.000000 50.000000 50.000000 50.000000 50.000000 50.000000 50.000000 50.000000 50.000000 50.000000 50.000000 50.000000 50.000000 50.000000 50.000000 50.000000 50.000000 50.000000 50.000000 50.000000
FLASER 180 29.000000 29.004467 29.017875 29.040244 29.071610 50.000000 50.000000 50.000000 50.000000 50.000000 50.000000 50.000000 50.000000 50.000000 50.000000 50.000000 32.474953 30.616780 29.457786 29.632332 29.818199 30.015715 50.000000 50.000000 50.000000 50.000000 50.000000 50.000000 50.000000 50.000000 50.000000 50.000000 50.000000 50.000000 50.000000 50.000000 50.000000 50.000000 50.000000 50.000000 50.000000 50.000000 50.000000 50.000000 50.000000 50.000000 50.000000 50.000000 50.000000 50.000000 50.000000 50.000000 50.000000 50.000000 50.000000 50.000000 50.000000 50.000000 50.000000 50.000000 50.000000 50.000000 50.000000 50.000000 50.000000 50.000000 50.000000 50.000000 49.386968 48.687096 48.021367 47.387999 46.785344 46.211880 45.666200 45.147001 44.653074 44.183301 43.736640 43.312128 42.908867 42.526024 42.162824 41.818548 41.492526 41.184135 34.761751 33.583776 33.350013 33.675980 34.018963 34.379704 34.758999 35.157707 39.119122 38.961282 38.816619 38.684898 38.565907 38.459455 38.365375 38.283517 38.213753 38.155975 38.110092 38.076034 38.053747 38.043198 38.044370 38.057265 38.081902 38.118321 38.166577 38.226744 38.298917 38.383209 38.479751 38.588696 38.710217 50.000000 50.000000 50.000000 50.000000 50.000000 50.000000 50.000000 50.000000 50.000000 50.000000 50.000000 50.000000 50.000000 50.000000 50.000000 50.000000 50.000000 50.000000 50.000000 50.000000 50.000000 50.000000 50.000000 50.000000 50.000000 50.000000 50.000000 50.000000 50.000000 50.000000 50.000000 50.000000 50.000000 50.000000 50.000000 50.000000 50.000000 50.000000 50.000000 50.000000 50.000000 50.000000 50.000000 50.000000 50.000000 50.000000 50.000000 50.000000 50.000000 50.000000 50.000000 50.000000 50.000000 50.000000 50.000000 50.000000 50.000000 50.000000 50.000000 50.000000 50.000000
FLASER 180 29.000000 29.004467 29.017875 50.000000 50.000000 50.000000 50.000000 50.000000 50.000000 50.000000 50.000000 50.000000 50.000000 50.000000 50.000000 34.584591 32.474953 31.386702 31.561914 31.748927 31.948070 50.000000 50.000000 50.000000 50.000000 50.000000 50.000000 50.000000 50.000000 50.000000 50.000000 50.000000 50.000000 50.000000 50.000000 50.000000 50.000000 50.000000 50.000000 50.000000 50.000000 50.000000 50.000000 50.000000 50.000000 50.000000 50.000000 50.000000 50.000000 50.000000 50.000000 50.000000 50.000000 50.000000 50.000000 50.000000 50.000000 50.000000 50.000000 50.000000 50.000000 50.000000 50.000000 50.000000 50.000000 50.000000 50.000000 50.000000 49.386968 48.687096 48.021367 47.387999 46.785344 46.211880 45.666200 45.147001 44.653074 44.183301 43.736640 43.312128 42.908867 42.526024 42.162824 41.818548 41.492526 41.184135 34.761751 33.583776 33.350013 33.675980 34.018963 34.379704 34.758999 35.157707 39.119122 38.961282 38.816619 38.684898 38.565907 38.459455 38.365375 38.283517 38.213753 38.155975 38.110092 38.076034 38.053747 38.043198 38.044370 38.057265 38.081902 38.118321 38.166577 38.226744 38.298917 38.383209 38.479751 38.588696 38.710217 50.000000 50.000000 50.000000 50.000000 50.000000 50.000000 50.000000 50.000000 50.000000 50.000000 50.000000 50.000000 50.000000 50.000000 50.000000 50.000000 50.000000 50.000000 50.000000 50.000000 50.000000 50.000000 50.000000 50.000000 50.000000 50.000000 50.000000 50.000000 50.000000 50.000000 50.000000 50.000000 50.000000 50.000000 50.000000 50.000000 50.000000 50.000000 50.000000 50.000000 50.000000 50.000000 50.000000 50.000000 50.000000 50.000000 50.000000 50.000000 50.000000 50.000000 50.000000 50.000000 50.000000 50.000000 50.000000 50.000000 50.000000 50.000000 50.000000 50.000000 50.000000
FLASER 180 29.000000 50.000000 50.000000 50.000000 50.000000 50.000000 50.000000 50.000000 50.000000 50.000000 50.000000 50.000000 50.000000 50.000000 36.999553 34.584591 33.304521 33.479148 33.666041 50.000000 50.000000 50.000000 50.000000 50.000000 50.000000 50.000000 50.000000 50.000000 50.000000 50.000000 50.000000 50.000000 50.000000 50.000000 50.000000 50.000000 50.000000 50.000000 50.000000 50.000000 50.000000 50.000000 50.000000 50.000000 50.000000 50.000000 50.000000 50.000000 50.000000 50.000000 50.000000 50.000000 50.000000 50.000000 50.000000 50.000000 50.000000 50.000000 50.000000 50.000000 50.000000 50.000000 50.000000 50.000000 50.000000 50.000000 50.000000 50.000000 49.386968 48.687096 48.021367 47.387999 46.785344 46.211880 45.666200 45.147001 44.653074 44.183301 43.736640 43.312128 42.908867 42.526024 42.162824 41.818548 41.492526 41.184135 34.761751 33.583776 33.350013 33.675980 34.018963 34.379704 34.758999 35.157707 39.119122 38.961282 38.816619 38.684898 38.565907 38.459455 38.365375 38.283517 38.213753 38.155975 38.110092 38.076034 38.053747 38.043198 38.044370 38.057265 38.081902 38.118321 38.166577 38.226744 38.298917 38.383209 38.479751 38.588696 38.710217 50.000000 50.000000 50.000000 50.000000 50.000000 50.000000 50.000000 50.000000 50.000000 50.000000 50.000000 50.000000 50.000000 50.000000 50.000000 50.000000 50.000000 50.000000 50.000000 50.000000 50.000000 50.000000 50.000000 50.000000 50.000000 50.000000 50.000000 50.000000 50.000000 50.000000 50.000000 50.000000 50.000000 50.000000 50.000000 50.000000 50.000000 50.000000 50.000000 50.000000 50.000000 50.000000 50.000000 50.000000 50.000000 50.000000 50.000000 50.000000 50.000000 50.000000 50.000000 50.000000 50.000000 50.000000 50.000000 50.000000 50.000000 50.000000 50.000000 50.000000 50.000000
FLASER 180 50.000000 50.000000 50.000000 50.000000 50.000000 50.000000 50.000000 50.000000 50.000000 50.000000 50.000000 50.000000 50.000000 50.000000 36.999553 35.213228 35.386054 35.571595 50.000000 50.000000 50.000000 50.000000 50.000000 50.000000 50.000000 50.000000 50.000000 50.000000 50.000000 50.000000 50.000000 50.000000 50.000000 50.000000 50.000000 50.000000 50.000000 50.000000 50.000000 50.000000 50.000000 50.000000 50.000000 50.000000 50.000000 50.000000 50.000000 50.000000 50.000000 50.000000 50.000000 50.000000 50.000000 50.000000 50.000000 50.000000 50.000000 50.000000 50.000000 50.000000 50.000000 50.000000 50.000000 50.000000 50.000000 50.000000 50.000000 50.000000 49.386968 48.687096 48.021367 47.387999 46.785344 46.211880 45.666200 45.147001 44.653074 44.183301 43.736640 43.312128 42.908867 42.526024 42.162824 41.818548 41.492526 41.184135 34.761751 33.583776 33.350013 33.675980 34.018963 34.379704 34.758999 35.157707 39.119122 38.961282 38.816619 38.684898 38.565907 38.459455 38.365375 38.283517 38.213753 38.155975 38.110092 38.076034 38.053747 38.043198 38.044370 38.057265 38.081902 38.118321 38.166577 38.226744 38.298917 38.383209 38.479751 38.588696 38.710217 50.000000 50.000000 50.000000 50.000000 50.000000 50.000000 50.000000 50.000000 50.000000 50.000000 50.000000 50.000000 50.000000 50.000000 50.000000 50.000000 50.000000 50.000000 50.000000 50.000000 50.000000 50.000000 50.000000 50.000000 50.000000 50.000000 50.000000 50.000000 50.000000 50.000000 50.000000 50.000000 50.000000 50.000000 50.000000 50.000000 50.000000 50.000000 50.000000 50.000000 50.000000 50.000000 50.000000 50.000000 50.000000 50.000000 50.000000 50.000000 50.000000 50.000000 50.000000 50.000000 50.000000 50.000000 50.000000 50.000000 50.000000 50.000000 50.000000 50.000000 50.000000
FLASER 180 50.000000 50.000000 50.000000 50.000000 50.000000 50.000000 50.000000 50.000000 50.000000 50.000000 50.000000 50.000000 50.000000 39.790271 37.114757 37.284594 37.467586 50.000000 50.000000 50.000000 50.000000 50.000000 50.000000 50.000000 50.000000 50.000000 50.000000 50.000000 50.000000 50.000000 50.000000 50.000000 50.000000 50.000000 50.000000 50.000000 50.000000 50.000000 50.000000 50.000000 50.000000 50.000000 50.000000 50.000000 50.000000 50.000000 50.000000 50.000000 50.000000 50.000000 50.000000 50.000000 50.000000 50.000000 50.000000 50.000000 50.000000 50.000000 50.000000 50.000000 50.000000 50.000000 50.000000 50.000000 50.000000 50.000000 50.000000 50.000000 49.386968 48.687096 48.021367 47.387999 46.785344 46.211880 45.666200 45.147001 44.653074 44.183301 43.736640 43.312128 42.908867 42.526024 42.162824 41.818548 41.492526 41.184135 34.761751 33.583776 33.350013 33.675980 34.018963 34.379704 34.758999 35.157707 39.119122 38.961282 38.816619 38.684898 38.565907 38.459455 38.365375 38.283517 38.213753 38.155975 38.110092 38.076034 38.053747 38.043198 38.044370 38.057265 38.081902 38.118321 38.166577 38.226744 38.298917 38.383209 38.479751 38.588696 38.710217 50.000000 50.000000 50.000000 50.000000 50.000000 50.000000 50.000000 50.000000 50.000000 50.000000 50.000000 50.000000 50.000000 50.000000 50.000000 50.000000 50.000000 50.000000 50.000000 50.000000 50.000000 50.000000 50.000000 50.000000 50.000000 50.000000 50.000000 50.000000 50.000000 50.000000 50.000000 50.000000 50.000000 50.000000 50.000000 50.000000 50.000000 50.000000 50.000000 50.000000 50.000000 50.000000 50.000000 50.000000 50.000000 50.000000 50.000000 50.000000 50.000000 50.000000 50.000000 50.000000 50.000000 50.000000 50.000000 50.000000 50.000000 50.000000 50.000000 50.000000 50.000000
